#BESTVELA,USB2,0,78.0,FREEWHEELING,2256,584903.000,00400000,10a2,14392;SOL_COMPUTED,DOPPLER_VELOCITY,0.000,0.000,0.3309,216.200840,0.6554,0*6533df8f
#BESTVELA,USB2,0,79.5,FREEWHEELING,2256,584904.000,00400000,10a2,14392;SOL_COMPUTED,DOPPLER_VELOCITY,0.000,0.000,0.9864,28.930831,-1.9229,0*133cfaf6
#BESTVELA,USB2,0,79.5,FREEWHEELING,2256,584905.000,00400000,10a2,14392;SOL_COMPUTED,DOPPLER_VELOCITY,0.000,0.000,0.1888,18.911624,-0.3418,0*2e7ff88d
#BESTVELA,USB2,0,80.5,FREEWHEELING,2256,584906.000,00400000,10a2,14392;SOL_COMPUTED,DOPPLER_VELOCITY,0.000,0.000,0.5007,30.582746,-1.0295,0*799b67bf
#BESTVELA,USB2,0,81.5,FREEWHEELING,2256,584907.000,00400000,10a2,14392;SOL_COMPUTED,DOPPLER_VELOCITY,0.000,0.000,0.4616,211.340266,0.9495,0*b7bb6bf8
#BESTVELA,USB2,0,82.0,FREEWHEELING,2256,584908.000,00400000,10a2,14392;SOL_COMPUTED,DOPPLER_VELOCITY,0.000,0.000,0.1530,58.675288,-0.2183,0*743e6820
#BESTVELA,USB2,0,84.5,FREEWHEELING,2256,584909.000,00400000,10a2,14392;SOL_COMPUTED,DOPPLER_VELOCITY,0.000,0.000,0.5423,28.834072,-1.1355,0*d9b19b62
#BESTVELA,USB2,0,84.0,FREEWHEELING,2256,584910.000,00400000,10a2,14392;SOL_COMPUTED,DOPPLER_VELOCITY,0.000,0.000,0.5124,32.719503,-1.1080,0*ea2304f3
#BESTVELA,USB2,0,83.0,FREEWHEELING,2256,584911.000,00400000,10a2,14392;SOL_COMPUTED,DOPPLER_VELOCITY,0.000,0.000,0.3898,212.401258,0.7654,0*7de85399
#BESTVELA,USB2,0,81.5,FREEWHEELING,2256,584912.000,00400000,10a2,14392;SOL_COMPUTED,DOPPLER_VELOCITY,0.000,0.000,0.1008,207.749273,0.2398,0*8d62b5b3
#BESTVELA,USB2,0,81.0,FREEWHEELING,2256,584913.000,00400000,10a2,14392;SOL_COMPUTED,DOPPLER_VELOCITY,0.000,0.000,0.1694,209.256519,0.3006,0*3eb1ed87
#BESTVELA,USB2,0,81.0,FREEWHEELING,2256,584914.000,00400000,10a2,14392;SOL_COMPUTED,DOPPLER_VELOCITY,0.000,0.000,0.0195,286.030783,-0.0685,0*2b6bbeea
#BESTVELA,USB2,0,83.0,FREEWHEELING,2256,584915.000,00400000,10a2,14392;SOL_COMPUTED,DOPPLER_VELOCITY,0.000,0.000,0.5116,31.408534,-0.9482,0*9c90cba6
#BESTVELA,USB2,0,83.0,FREEWHEELING,2256,584916.000,00400000,10a2,14392;SOL_COMPUTED,DOPPLER_VELOCITY,0.000,0.000,0.5159,213.419222,1.0423,0*86b5998a
#BESTVELA,USB2,0,84.5,FREEWHEELING,2256,584917.000,00400000,10a2,14392;SOL_COMPUTED,DOPPLER_VELOCITY,0.000,0.000,0.1180,46.502797,-0.2397,0*37575294
#BESTVELA,USB2,0,84.5,FREEWHEELING,2256,584918.000,00400000,10a2,14392;SOL_COMPUTED,DOPPLER_VELOCITY,0.000,0.000,0.4683,30.001243,-0.9601,0*08b5fd43
#BESTVELA,USB2,0,84.5,FREEWHEELING,2256,584919.000,00400000,10a2,14392;SOL_COMPUTED,DOPPLER_VELOCITY,0.000,0.000,0.0280,276.061344,-0.0049,0*dadd4ef1
#BESTVELA,USB2,0,81.5,FREEWHEELING,2256,584920.000,00400000,10a2,14392;SOL_COMPUTED,DOPPLER_VELOCITY,0.000,0.000,0.7758,211.930288,1.5194,0*ec9d6b6a
#BESTVELA,USB2,0,80.5,FREEWHEELING,2256,584921.000,00400000,10a2,14392;SOL_COMPUTED,DOPPLER_VELOCITY,0.000,0.000,0.8590,213.244001,1.7176,0*01043507
#BESTVELA,USB2,0,80.5,FREEWHEELING,2256,584922.000,00400000,10a2,14392;SOL_COMPUTED,DOPPLER_VELOCITY,0.000,0.000,0.8181,212.980247,1.6299,0*a0794a83
#BESTVELA,USB2,0,80.5,FREEWHEELING,2256,584923.000,00400000,10a2,14392;SOL_COMPUTED,DOPPLER_VELOCITY,0.000,0.000,0.2080,207.225662,0.4024,0*58f48fe4
#BESTVELA,USB2,0,83.0,FREEWHEELING,2256,584924.000,00400000,10a2,14392;SOL_COMPUTED,DOPPLER_VELOCITY,0.000,0.000,0.1614,211.191382,0.4149,0*4f64ad66

#BESTVELA,USB2,0,84.5,FREEWHEELING,2256,584919.000,00400000,10a2,14392;SOL_COMPUTED,DOPPLER_VELOCITY,0.000,0.000,0.0280,276.061344,-0.0049,0*dadd4ef1
#BESTVELA,USB2,0,81.5,FREEWHEELING,2256,584920.000,00400000,10a2,14392;SOL_COMPUTED,DOPPLER_VELOCITY,0.000,0.000,0.7758,211.930288,1.5194,0*ec9d6b6a
#BESTVELA,USB2,0,80.5,FREEWHEELING,2256,584921.000,00400000,10a2,14392;SOL_COMPUTED,DOPPLER_VELOCITY,0.000,0.000,0.8590,213.244001,1.7176,0*01043507
#BESTVELA,USB2,0,80.5,FREEWHEELING,2256,584922.000,00400000,10a2,14392;SOL_COMPUTED,DOPPLER_VELOCITY,0.000,0.000,0.8181,212.980247,1.6299,0*a0794a83
#BESTVELA,USB2,0,80.5,FREEWHEELING,2256,584923.000,00400000,10a2,14392;SOL_COMPUTED,DOPPLER_VELOCITY,0.000,0.000,0.2080,207.225662,0.4024,0*58f48fe4
#BESTVELA,USB2,0,83.0,FREEWHEELING,2256,584924.000,00400000,10a2,14392;SOL_COMPUTED,DOPPLER_VELOCITY,0.000,0.000,0.1614,211.191382,0.4149,0*4f64ad66
#BESTVELA,USB2,0,82.0,FREEWHEELING,2256,584925.000,00400000,10a2,14392;SOL_COMPUTED,DOPPLER_VELOCITY,0.000,0.000,0.3708,211.207186,0.7300,0*233e81b5
#BESTVELA,USB2,0,80.0,FREEWHEELING,2256,584926.000,00400000,10a2,14392;SOL_COMPUTED,DOPPLER_VELOCITY,0.000,0.000,0.2227,213.662018,0.4403,0*86d5e27b
#BESTVELA,USB2,0,80.0,FREEWHEELING,2256,584927.000,00400000,10a2,14392;SOL_COMPUTED,DOPPLER_VELOCITY,0.000,0.000,0.5054,29.113851,-1.0566,0*974ea2c4
#BESTVELA,USB2,0,80.5,FREEWHEELING,2256,584928.000,00400000,10a2,14392;SOL_COMPUTED,DOPPLER_VELOCITY,0.000,0.000,0.7990,29.809122,-1.5352,0*5fd09a4a
#BESTVELA,USB2,0,79.0,FREEWHEELING,2256,584929.000,00400000,10a2,14392;SOL_COMPUTED,DOPPLER_VELOCITY,0.000,0.000,0.1346,26.677649,-0.3434,0*0c8a2364
#BESTVELA,USB2,0,79.0,FREEWHEELING,2256,584930.000,00400000,10a2,14392;SOL_COMPUTED,DOPPLER_VELOCITY,0.000,0.000,1.0902,208.378880,2.2810,0*08ff5e9c
#BESTVELA,USB2,0,85.0,FREEWHEELING,2256,584931.000,00400000,10a2,14392;SOL_COMPUTED,DOPPLER_VELOCITY,0.000,0.000,0.0931,206.539968,0.2085,0*9f51dea0
#BESTVELA,USB2,0,85.0,FREEWHEELING,2256,584932.000,00400000,10a2,14392;SOL_COMPUTED,DOPPLER_VELOCITY,0.000,0.000,0.2721,35.464832,-0.5206,0*aa731dd3
#BESTVELA,USB2,0,82.5,FREEWHEELING,2256,584933.000,00400000,10a2,14392;SOL_COMPUTED,DOPPLER_VELOCITY,0.000,0.000,0.2406,205.108771,0.4835,0*2831c39e
#BESTVELA,USB2,0,82.5,FREEWHEELING,2256,584934.000,00400000,10a2,14392;SOL_COMPUTED,DOPPLER_VELOCITY,0.000,0.000,0.3566,212.600720,0.7427,0*cf4bddaf
#BESTVELA,USB2,0,82.5,FREEWHEELING,2256,584935.000,00400000,10a2,14392;SOL_COMPUTED,DOPPLER_VELOCITY,0.000,0.000,0.5149,31.583574,-0.9916,0*0f8e3b8c
#BESTVELA,USB2,0,81.5,FREEWHEELING,2256,584936.000,00400000,10a2,14392;SOL_COMPUTED,DOPPLER_VELOCITY,0.000,0.000,0.0150,152.537250,0.0109,0*022593b0
#BESTVELA,USB2,0,81.5,FREEWHEELING,2256,584937.000,00400000,10a2,14392;SOL_COMPUTED,DOPPLER_VELOCITY,0.000,0.000,0.2593,215.410315,0.5219,0*ee8ae343
#BESTVELA,USB2,0,85.0,FREEWHEELING,2256,584938.000,00400000,10a2,14392;SOL_COMPUTED,DOPPLER_VELOCITY,0.000,0.000,0.0355,243.327558,0.0607,0*c338cdc8
#BESTVELA,USB2,0,83.5,FREEWHEELING,2256,584939.000,00400000,10a2,14392;SOL_COMPUTED,DOPPLER_VELOCITY,0.000,0.000,0.0695,56.387008,-0.0844,0*1fd9ac13
#BESTVELA,USB2,0,81.5,FREEWHEELING,2256,584940.000,0040000